,City,Cloudiness,Country,Date,Humidity,Lat,Lng,Max Temp,Wind Speed
0,Totma,100,RU,1581512691,97,59.97,42.76,32.74,9.84
1,Cabo San Lucas,4,MX,1581512680,85,22.89,-109.91,51.01,5.32
2,Wonthaggi,0,AU,1581512691,91,-38.6,145.59,68.0,8.01
3,Norman Wells,40,CA,1581512691,82,65.28,-126.83,-16.6,6.93
4,Puerto Ayora,20,EC,1581512692,78,-0.74,-90.35,78.8,9.17
5,Moose Factory,90,CA,1581512692,72,51.26,-80.61,15.8,24.16
6,Hong Kong,40,HK,1581512586,88,22.29,114.16,71.01,5.82
7,Abalak,100,RU,1581512692,94,58.13,68.59,15.75,6.96
8,Maple Creek,100,CA,1581512692,91,49.92,-109.48,1.81,7.52
9,Bambous Virieux,40,MU,1581512693,79,-20.34,57.76,84.2,17.22
10,Tuktoyaktuk,0,CA,1581512693,96,69.45,-133.04,-21.75,10.04
11,Caxias,75,PT,1581512693,82,38.7,-9.28,60.01,4.7
12,Hermanus,0,ZA,1581512693,46,-34.42,19.23,89.01,5.99
13,Chimbote,95,PE,1581512693,86,-9.09,-78.58,69.85,2.77
14,George,0,ZA,1581512498,51,-33.96,22.46,84.2,8.05
15,Rikitea,4,PF,1581512694,79,-23.12,-134.97,79.02,17.38
16,Punta Arenas,4,CL,1581512694,53,-53.15,-70.92,50.0,12.75
17,Saint Anthony,1,US,1581512405,82,45.02,-93.22,32.0,10.29
18,Fortuna,90,US,1581512695,93,40.6,-124.16,46.0,8.05
19,Pevek,8,RU,1581512695,55,69.7,170.31,-1.03,4.36
20,Burnie,37,AU,1581512695,80,-41.07,145.92,66.0,4.56
21,Ushuaia,40,AR,1581512541,61,-54.8,-68.3,50.0,18.34
22,Srandakan,100,ID,1581512696,90,-7.94,110.25,75.54,2.53
23,Talnakh,40,RU,1581512696,84,69.49,88.4,6.8,29.08
24,Avarua,100,CK,1581512696,83,-21.21,-159.78,80.6,6.93
25,Zhanaozen,0,KZ,1581512696,58,43.3,52.8,30.69,18.5
26,Abu Samrah,92,SY,1581512696,63,35.3,37.18,42.62,7.47
27,Ous,82,RU,1581512697,92,60.91,61.52,22.75,4.63
28,Kapaa,40,US,1581512697,88,22.08,-159.32,69.8,6.93
29,Busselton,100,AU,1581512697,87,-33.65,115.33,69.01,10.85
30,Manjacaze,81,MZ,1581512697,60,-24.71,33.88,84.54,14.74
31,Mar del Plata,0,AR,1581512492,79,-38.0,-57.56,75.0,23.0
32,Keetmanshoop,100,NA,1581512698,20,-26.58,18.13,94.1,10.89
33,Leningradskiy,79,RU,1581512698,96,69.38,178.42,-19.79,10.16
34,Cape Town,0,ZA,1581512615,51,-33.93,18.42,95.0,13.87
35,Oodweyne,32,SO,1581512698,40,9.41,45.06,81.5,17.22
36,Hilo,90,US,1581512698,88,19.73,-155.09,66.2,3.4
37,Bluff,100,NZ,1581512699,92,-46.6,168.33,57.0,1.01
38,Upernavik,95,GL,1581512699,96,72.79,-56.15,-10.68,6.17
39,Lazarev,100,RU,1581512699,95,52.23,141.51,16.38,10.25
40,Port Hardy,20,CA,1581512509,100,50.7,-127.42,30.2,3.36
41,Cockburn Town,4,TC,1581512699,76,21.46,-71.14,77.67,21.18
42,Hithadhoo,98,MV,1581512434,73,-0.6,73.08,83.7,14.5
43,Atuona,2,PF,1581512700,79,-9.8,-139.03,80.35,15.59
44,Saint-Joseph,20,RE,1581512700,66,-21.37,55.62,87.8,11.41
45,Mahebourg,40,MU,1581512700,79,-20.41,57.7,84.2,17.22
46,Flinders,90,AU,1581512700,100,-34.58,150.86,72.0,8.05
47,Mataura,95,NZ,1581512701,92,-46.19,168.86,57.0,1.01
48,Fort Nelson,75,CA,1581512701,77,58.81,-122.7,-0.4,4.7
49,Santa Cruz del Sur,0,CU,1581512701,83,20.71,-78.0,76.15,17.74
50,Kissamos,26,GR,1581512701,60,35.49,23.66,68.0,14.99
51,Sao Joao da Barra,90,BR,1581512701,94,-21.64,-41.05,75.2,6.93
52,Hervey Bay,75,AU,1581512702,94,-25.3,152.85,72.0,5.82
53,Touros,75,BR,1581512618,66,-5.2,-35.46,86.0,10.29
54,Belousovka,0,KZ,1581512702,83,50.13,82.52,-7.6,4.47
55,Danjiangkou,0,CN,1581512702,80,32.54,111.51,54.3,6.42
56,Namatanai,96,PG,1581512702,76,-3.67,152.43,83.62,15.93
57,Sanmenxia,0,CN,1581512703,46,34.77,111.18,54.81,5.95
58,Naze,26,JP,1581512703,77,28.37,129.48,69.8,10.29
59,Oranjemund,16,NA,1581512703,62,-28.55,16.43,74.89,12.86
60,Esperance,90,AU,1581512703,82,-33.87,121.9,66.2,8.05
61,Neyshabur,55,IR,1581512703,21,36.21,58.8,34.2,17.13
62,Yellowknife,5,CA,1581512430,65,62.46,-114.35,-40.0,4.7
63,Hobart,75,AU,1581512584,87,-42.88,147.33,59.0,5.82
64,Port Alfred,0,ZA,1581512704,84,-33.59,26.89,73.0,8.99
65,Ranau,75,MY,1581512704,78,5.95,116.66,82.4,4.7
66,Tsiroanomandidy,0,MG,1581512704,33,-18.77,46.03,87.33,3.0
67,Nalut,78,LY,1581512705,11,30.33,10.85,69.51,2.51
68,Bezhanitsy,97,RU,1581512705,96,56.98,29.89,34.18,9.22
69,College,1,US,1581512705,74,64.86,-147.8,-11.99,5.73
70,Rawson,55,AR,1581512705,57,-43.3,-65.1,73.31,13.82
71,Faya,20,SA,1581512705,48,18.39,42.45,68.0,10.29
72,Cidreira,0,BR,1581512705,73,-30.18,-50.21,72.84,11.27
73,Albany,1,US,1581512706,79,42.6,-73.97,33.01,6.93
74,Kodiak,90,US,1581512706,93,57.79,-152.41,35.6,6.93
75,Brewster,40,US,1581512706,55,41.4,-73.62,39.0,3.36
76,Salalah,25,OM,1581512706,39,17.02,54.09,80.6,27.51
77,Brigantine,1,US,1581512579,80,39.41,-74.36,41.0,3.36
78,Broome,40,US,1581512707,68,42.25,-75.83,30.0,8.05
79,Tiksi,64,RU,1581512707,95,71.69,128.87,-26.43,3.44
80,Casablanca,0,MA,1581512591,68,33.59,-7.62,68.0,2.24
81,Bentiu,62,SS,1581512707,6,9.23,29.83,97.29,6.53
82,Erenhot,87,CN,1581512707,52,43.65,111.98,33.31,13.78
83,Cherskiy,11,RU,1581512708,62,68.75,161.3,-7.11,8.01
84,Port Elizabeth,0,ZA,1581512411,69,-33.92,25.57,77.0,24.16
85,Ilulissat,75,GL,1581512708,45,69.22,-51.1,1.4,8.05
86,Isangel,40,VU,1581512708,88,-19.55,169.27,82.4,11.99
87,Saskylakh,0,RU,1581512708,92,71.92,114.08,-27.33,7.56
88,Taber,90,CA,1581512709,85,49.82,-112.15,12.2,14.99
89,Castro,57,BR,1581512475,83,-24.79,-50.01,61.02,6.96
90,Vaini,90,TO,1581512709,94,-21.2,-175.2,75.2,9.17
91,Whitianga,11,NZ,1581512709,89,-36.83,175.7,63.0,1.88
92,Kattivakkam,20,IN,1581512710,65,13.22,80.32,82.4,9.17
93,George Town,20,MY,1581512710,74,5.41,100.34,86.0,3.36
94,Kaitangata,100,NZ,1581512710,64,-46.28,169.85,59.0,18.39
95,Grand Gaube,40,MU,1581512710,79,-20.01,57.66,84.2,17.22
96,Vila Franca do Campo,20,PT,1581512711,82,37.72,-25.43,62.6,10.29
97,Havelock,90,US,1581512711,81,34.88,-76.9,57.2,13.87
98,Kachkanar,55,RU,1581512711,86,58.7,59.49,22.01,10.27
99,Tiarei,20,PF,1581512711,78,-17.53,-149.33,78.8,1.12
100,Mbandaka,46,CD,1581512711,43,0.05,18.26,90.95,5.03
101,Sumenep,23,ID,1581512712,73,-7.02,113.87,82.09,5.23
102,Ribeira Grande,75,PT,1581512712,93,38.52,-28.7,62.6,11.41
103,Broken Hill,9,AU,1581512712,44,-31.95,141.43,78.8,13.87
104,Salinas,1,US,1581512712,86,36.68,-121.66,50.0,4.14
105,Ballina,75,AU,1581512712,100,-28.87,153.57,73.4,4.7
106,Nikolskoye,90,RU,1581512713,81,59.7,30.79,36.0,6.71
107,Cairo,0,EG,1581512691,37,30.06,31.25,68.0,11.41
108,Buraidah,0,SA,1581512713,33,26.33,43.98,57.2,5.82
109,Alakurtti,100,RU,1581512713,87,66.97,30.35,27.0,4.0
110,Lompoc,1,US,1581512713,53,34.64,-120.46,50.0,3.87
111,Vanimo,45,PG,1581512714,78,-2.67,141.3,82.2,11.25
112,Ust-Tsilma,100,RU,1581512714,93,65.44,52.15,28.02,10.89
113,Yangi Marg`ilon,40,UZ,1581512714,62,40.43,71.72,51.8,6.93
114,Kiryat Gat,20,IL,1581512714,42,31.61,34.76,66.99,12.75
115,Zhanakorgan,100,KZ,1581512714,98,43.91,67.25,37.56,8.55
116,Jamestown,40,US,1581512715,85,42.1,-79.24,28.99,3.36
117,Sungaipenuh,90,ID,1581512715,97,-2.08,101.38,66.92,1.83
118,El Centro,1,US,1581512715,69,32.79,-115.56,46.99,6.93
119,Khatanga,100,RU,1581512715,87,71.97,102.5,-9.42,6.15
120,East London,20,ZA,1581512715,69,-33.02,27.91,77.0,23.04
121,Longyearbyen,20,SJ,1581512715,60,78.22,15.64,8.6,19.46
122,Doha,0,QA,1581512416,38,25.29,51.53,61.0,18.34
123,Puerto Narino,75,CO,1581512716,100,-3.77,-70.38,77.0,2.24
124,Lebu,73,CL,1581512716,80,-37.62,-73.65,58.03,9.98
125,Sherlovaya Gora,100,RU,1581512716,78,50.57,116.25,8.49,6.64
126,Prince Rupert,90,CA,1581512427,93,54.32,-130.32,35.6,3.36
127,OEstersund,100,SE,1581512545,79,63.18,14.64,26.01,6.93
128,Tasiilaq,90,GL,1581512717,79,65.61,-37.64,19.4,31.09
129,Omboue,79,GA,1581512717,57,-1.57,9.26,89.73,3.78
130,North Bend,90,US,1581512717,100,43.41,-124.22,44.01,2.3
131,Belyy Yar,100,RU,1581512717,72,53.6,91.39,12.2,6.71
132,Alyangula,79,AU,1581512718,74,-13.85,136.42,86.0,4.7
133,Wagar,100,SD,1581512718,19,16.15,36.2,84.92,15.86
134,Chake Chake,48,TZ,1581512718,77,-5.25,39.77,83.77,11.23
135,Codrington,67,AU,1581512718,90,-38.27,141.97,64.0,22.35
136,Tabou,100,CI,1581512718,47,4.42,-7.35,92.53,1.9
137,Porto-Novo,0,BJ,1581512719,18,6.5,2.6,89.6,9.17
138,New Norfolk,75,AU,1581512719,87,-42.78,147.06,59.0,5.82
139,Barrow,1,US,1581512719,74,71.29,-156.79,-25.6,6.93
140,Lavrentiya,96,RU,1581512719,98,65.58,-171.0,-3.03,6.53
141,San Cristobal,20,VE,1581512630,88,7.77,-72.22,71.6,3.36
142,Bairnsdale,99,AU,1581512719,98,-37.83,147.62,68.0,5.01
143,Ahipara,3,NZ,1581512720,81,-35.17,173.17,65.43,5.57
144,Constitucion,48,CL,1581512720,80,-35.33,-72.42,61.5,6.96
145,Dikson,100,RU,1581512720,93,73.51,80.55,22.21,24.85
146,Saint-Philippe,20,RE,1581512720,66,-21.36,55.77,87.8,11.41
147,Alekseyevka,100,RU,1581512720,96,50.63,38.69,30.29,13.67
148,Misratah,22,LY,1581512721,59,32.38,15.09,61.84,18.19
149,Sao Filipe,0,CV,1581512721,54,14.9,-24.5,74.32,15.03
150,Kargopol,100,RU,1581512721,90,61.51,38.95,32.14,11.39
151,Qaanaaq,0,GL,1581512722,57,77.48,-69.36,-15.93,7.02
152,Beloha,0,MG,1581512722,30,-25.17,45.05,95.43,20.98
153,Butaritari,100,KI,1581512722,84,3.07,172.79,82.08,18.99
154,Ligatne,99,LV,1581512722,86,57.23,25.04,39.99,5.01
155,Ikalamavony,0,MG,1581512723,31,-21.15,46.58,88.23,10.29
156,Bredasdorp,0,ZA,1581512723,57,-34.53,20.04,80.6,11.41
157,Sakakah,0,SA,1581512476,20,29.97,40.21,62.6,5.82
158,Beyneu,0,KZ,1581512723,42,45.32,55.2,30.49,6.42
159,Meulaboh,75,ID,1581512723,73,4.14,96.13,84.31,6.26
160,Sao Jose da Coroa Grande,82,BR,1581512724,69,-8.9,-35.15,81.63,1.79
161,Svetlaya,83,RU,1581512724,80,46.54,138.33,29.14,5.39
162,Bestobe,0,KZ,1581512724,77,52.5,73.1,6.04,7.38
163,Chui,1,UY,1581512724,61,-33.7,-53.46,72.23,8.37
164,Paita,40,PE,1581512724,77,-5.09,-81.11,73.87,8.9
165,Pervomayskiy,100,RU,1581512724,90,53.25,40.29,23.97,14.76
166,Mahanoro,33,MG,1581512725,80,-19.9,48.8,81.09,22.44
167,Arraial do Cabo,90,BR,1581512725,94,-22.97,-42.03,73.4,6.93
168,Shimoda,75,JP,1581512725,66,34.67,138.95,57.0,5.82
169,Rockland,1,US,1581512726,51,41.17,-74.05,39.99,9.8
170,Mount Gambier,90,AU,1581512643,93,-37.83,140.77,62.6,11.41
171,Calvinia,0,ZA,1581512726,12,-31.47,19.78,95.43,19.75
172,Oskarshamn,75,SE,1581512726,80,57.26,16.45,43.0,14.99
173,Nabire,92,ID,1581512476,97,-3.37,135.48,73.53,1.66
174,Vostok,99,RU,1581512727,98,46.49,135.88,26.44,3.49
175,Havre-Saint-Pierre,1,CA,1581512727,85,50.23,-63.6,15.8,5.82
176,Marshall,90,US,1581512727,93,34.38,-86.33,48.2,4.7
177,Orlik,83,RU,1581512727,95,52.52,99.83,-5.01,0.58
178,Makakilo City,20,US,1581512728,100,21.35,-158.09,66.99,4.7
179,Queimadas,76,BR,1581512728,54,-10.98,-39.63,80.38,5.32
180,Harper,100,LR,1581512728,47,4.38,-7.72,92.53,1.9
181,Marzuq,43,YE,1581512728,37,14.4,46.47,72.21,8.61
182,Vestmannaeyjar,20,IS,1581512729,68,63.44,-20.27,28.4,3.2
183,Olafsvik,100,IS,1581512729,67,64.89,-23.71,26.4,9.46
184,Eureka,90,US,1581512729,93,40.8,-124.16,46.0,8.05
185,Agirish,51,RU,1581512729,93,61.92,63.02,23.09,5.82
186,Trelew,50,AR,1581512729,24,-43.25,-65.31,82.27,13.51
187,Bethel,40,US,1581512730,55,41.37,-73.41,39.0,3.36
188,Ardakan,20,IR,1581512730,19,32.31,54.02,44.6,4.7
189,Heraclea,80,TR,1581512730,84,37.51,34.05,42.96,1.99
190,Arlit,100,NE,1581512730,6,18.74,7.39,84.24,10.96
191,Anadyr,90,RU,1581512730,85,64.75,177.48,10.4,13.42
192,Alta Floresta,90,BR,1581512731,94,-9.88,-56.09,77.0,1.12
193,Tonj,9,SS,1581512731,7,7.27,28.68,95.38,6.78
194,Taoudenni,0,ML,1581512731,32,22.68,-3.98,82.29,8.01
195,Nsanje,99,MW,1581512731,92,-16.92,35.26,78.6,2.19
196,Guerrero Negro,0,MX,1581512731,78,27.98,-114.06,54.61,5.64
197,Torbay,90,CA,1581512433,92,47.67,-52.73,30.99,8.05
198,Trivandrum,20,IN,1581512732,70,8.48,76.92,87.8,5.82
199,Dunda,88,TZ,1581512732,62,-8.12,34.25,84.22,1.5
200,Townsville,77,AU,1581512732,83,-19.25,146.8,84.99,3.91
201,Bilma,95,NE,1581512732,13,18.69,12.92,72.46,6.55
202,Ancud,75,CL,1581512733,100,-41.87,-73.82,53.6,5.82
203,Sarkand,39,KZ,1581512733,68,45.41,79.92,25.57,1.95
204,Minab,20,IR,1581512733,37,27.15,57.08,69.8,18.34
205,Bundaberg,75,AU,1581512520,94,-24.85,152.35,72.0,5.82
206,Carnarvon,40,AU,1581512733,78,-24.87,113.63,77.0,13.87
207,Ibra,65,OM,1581512733,33,22.69,58.53,81.88,10.13
208,Pisco,99,PE,1581512734,30,-13.7,-76.22,71.6,3.36
209,Ipoti,0,NG,1581512734,10,7.87,5.08,92.93,6.08
210,Zhigansk,99,RU,1581512734,98,66.77,123.37,-25.78,4.9
211,Laas,40,IT,1581512734,42,46.62,10.7,55.4,4.7
212,Dori,100,BF,1581512734,7,14.04,-0.03,87.06,17.34
213,Pochutla,20,MX,1581512735,60,15.74,-96.47,75.2,11.61
214,Jalu,0,LY,1581512735,15,29.03,21.55,73.29,11.99
215,La Providencia,5,MX,1581512735,100,28.72,-111.58,46.4,4.7
216,Almeria,20,ES,1581512735,77,37.17,-2.33,64.4,10.29
217,Yulara,0,AU,1581512736,23,-25.24,130.99,93.2,4.56
218,Yele,34,CM,1581512736,10,10.73,13.59,84.04,10.69
219,Vardo,86,NO,1581512736,73,70.37,31.11,30.2,27.51
220,Kavaratti,81,IN,1581512736,67,10.57,72.64,82.8,8.23
221,Lorengau,95,PG,1581512466,77,-2.02,147.27,83.93,17.4
222,Kahului,1,US,1581512737,93,20.89,-156.47,64.0,3.36
223,Narsaq,20,GL,1581512585,31,60.92,-46.05,3.2,3.36
224,Henties Bay,1,NA,1581512737,72,-22.12,14.28,73.0,4.0
225,Dingle,2,PH,1581512737,80,11.0,122.67,73.99,11.83
226,Joao Camara,75,BR,1581512738,66,-5.54,-35.82,86.0,10.29
227,Gazipur,20,BD,1581512738,43,24.0,90.42,73.4,5.82
228,Sona,20,IT,1581512738,37,45.44,10.83,63.0,10.29
229,Chokurdakh,100,RU,1581512738,72,70.63,147.92,-24.54,1.74
230,Ban Nahin,54,LA,1581512738,40,18.24,104.21,84.65,1.79
231,Thompson,5,CA,1581512585,60,55.74,-97.86,-29.2,9.17
232,Praia,0,CV,1581512739,17,14.92,-23.51,86.0,19.46
233,Cayenne,75,GF,1581512707,74,4.93,-52.33,80.6,11.41
234,Saint George,1,US,1581512739,85,37.1,-113.58,32.0,3.36
235,Berlevag,40,NO,1581512739,68,70.86,29.09,33.8,20.8
236,San Quintin,0,MX,1581512739,8,30.48,-115.95,28.99,11.01
237,Sivaki,69,RU,1581512740,74,52.63,126.75,6.12,13.0
238,Baruun-Urt,100,MN,1581512740,92,46.68,113.28,14.68,17.92
239,Borger,75,NL,1581512731,70,52.92,6.79,44.01,19.46
240,Lagoa,1,PT,1581512584,86,39.05,-27.98,62.13,17.96
241,Waipawa,69,NZ,1581512741,77,-41.41,175.52,66.99,27.51
242,Samarai,52,PG,1581512741,91,-10.62,150.67,78.03,5.37
243,Vanavara,12,RU,1581512741,95,60.34,102.28,-11.79,2.82
244,Arkadelphia,90,US,1581512742,100,34.12,-93.05,42.8,5.91
245,Vao,100,NC,1581512742,86,-22.67,167.48,80.92,22.46
246,Sinnamary,44,GF,1581512742,74,5.38,-52.95,79.47,16.13
247,Tucupita,22,VE,1581512742,81,9.06,-62.05,76.48,3.13
248,Vila,20,PT,1581512724,77,42.03,-8.16,61.0,3.36
249,Iguape,75,BR,1581512743,81,-24.71,-47.56,72.61,3.13
250,Segezha,97,RU,1581512743,88,63.74,34.32,33.22,11.56
251,Port Hedland,0,AU,1581512743,78,-20.32,118.57,82.4,10.29
252,Akdepe,90,TM,1581512743,92,42.06,59.38,28.4,6.93
253,Hasaki,75,JP,1581512743,66,35.73,140.83,55.0,6.93
254,Portland,90,US,1581512744,100,45.52,-122.68,43.0,2.13
255,Takab,19,IR,1581512744,80,36.4,47.11,12.45,2.04
256,Aktash,0,RU,1581512744,92,50.3,87.73,-3.78,4.0
257,Martapura,40,ID,1581512744,83,-3.42,114.85,82.4,3.36
258,Saurimo,75,AO,1581512744,61,-9.66,20.39,80.6,5.82
259,Turkan,0,AZ,1581512745,42,40.36,50.22,46.4,20.8
260,Kalmunai,69,LK,1581512745,80,7.42,81.82,81.07,22.03
261,Bengkulu,87,ID,1581512745,87,-3.8,102.27,78.6,3.65
262,Monmouth,1,US,1581512629,51,40.3,-74.17,41.0,17.56
263,Edd,77,ER,1581512745,49,13.93,41.69,81.52,18.37
264,Alofi,100,NU,1581512746,94,-19.06,-169.92,77.0,2.24
265,Cap Malheureux,40,MU,1581512746,79,-19.98,57.61,84.2,17.22
266,Heihe,100,CN,1581512746,78,50.24,127.49,14.0,4.47
267,Kitimat,90,CA,1581512746,89,54.05,-128.65,32.0,2.24
268,Pangnirtung,75,CA,1581512747,74,66.15,-65.71,-23.8,5.82
269,Mount Isa,34,AU,1581512747,50,-20.73,139.5,75.2,7.9
270,Manokwari,92,ID,1581512623,86,-0.87,134.08,74.95,4.14
271,Acapulco de Juarez,20,MX,1581512747,78,16.86,-99.89,71.6,2.24
272,Sarangani,100,PH,1581512748,79,5.4,125.46,81.95,24.05
273,Viedma,23,AR,1581512748,34,-40.81,-63.0,77.02,25.3
274,Letlhakeng,26,BW,1581512748,51,-24.09,25.03,80.26,11.88
275,Haines Junction,100,CA,1581512748,95,60.75,-137.51,8.94,5.95
276,Oranjestad,40,AW,1581512749,78,12.52,-70.03,80.6,17.22
277,Pontal do Parana,75,BR,1581512473,77,-25.65,-48.51,73.99,10.29
278,Port Moresby,37,PG,1581512749,76,-9.44,147.18,84.58,16.4
279,Coquimbo,90,CL,1581512736,88,-29.95,-71.34,66.99,3.36
280,Honningsvag,20,NO,1581512717,74,70.98,25.97,33.8,25.28
281,Khanbari,49,NP,1581512750,82,27.37,87.2,42.19,1.25
282,Siguiri,1,GN,1581512584,9,11.67,-9.5,93.06,11.03
283,Kuytun,100,RU,1581512751,96,54.34,101.5,8.35,4.29
284,Klaksvik,51,FO,1581512751,64,62.23,-6.59,37.4,14.29
285,Kruisfontein,0,ZA,1581512751,40,-34.0,24.73,86.49,17.49
286,Rocha,0,UY,1581512546,62,-34.48,-54.33,70.12,9.6
287,Gizo,100,SB,1581512752,90,-8.1,156.84,78.06,6.85
288,Bariloche,40,AR,1581512752,71,-41.15,-71.31,55.4,25.28
289,Satipo,100,PE,1581512752,84,-11.25,-74.64,62.15,1.77
290,Gornopravdinsk,100,RU,1581512752,94,60.05,69.9,15.71,6.89
291,Athabasca,90,CA,1581512752,96,54.72,-113.29,-18.8,2.8
292,Chimbarongo,100,CL,1581512753,62,-34.7,-71.05,61.07,4.32
293,Carndonagh,20,IE,1581512753,93,55.25,-7.27,39.2,10.29
294,Gladstone,40,AU,1581512753,78,-23.85,151.25,77.0,5.82
295,Hambantota,40,LK,1581512753,83,6.12,81.12,84.2,19.46
296,Marystown,100,CA,1581512753,97,47.17,-55.15,30.58,24.43
297,Bardiyah,0,LY,1581512754,67,31.76,25.09,62.76,10.42
298,Taunggyi,0,MM,1581512754,40,20.78,97.03,62.46,5.06
299,Dubbo,40,AU,1581512484,83,-32.25,148.62,73.4,10.29
300,Aklavik,20,CA,1581512754,75,68.22,-135.01,-20.2,6.93
301,Nelson Bay,100,AU,1581512754,93,-32.72,152.15,73.0,1.01
302,Azul,1,AR,1581512755,67,-36.78,-59.86,72.0,5.01
303,Ponta do Sol,20,PT,1581512755,68,32.67,-17.1,68.0,4.7
304,Terrace,90,CA,1581512485,88,54.52,-128.6,32.0,2.24
305,Saldanha,0,ZA,1581512755,50,-33.01,17.94,95.0,11.41
306,Yenagoa,0,NG,1581512756,8,4.92,6.26,97.41,6.67
307,Koutsouras,9,GR,1581512756,69,35.03,25.95,70.0,5.99
308,Trat,33,TH,1581512756,63,12.5,102.5,87.01,5.88
309,Phek,13,IN,1581512756,75,25.67,94.5,52.11,0.18
310,Montepuez,100,MZ,1581512756,95,-13.13,39.0,74.07,4.16
311,Kudahuvadhoo,100,MV,1581512757,76,2.67,72.89,82.92,13.38
312,Toora-Khem,97,RU,1581512757,92,52.47,96.11,0.07,2.06
313,Riberalta,90,BO,1581512757,100,-10.98,-66.1,75.2,0.34
314,Smithers,90,CA,1581512757,92,54.78,-127.17,21.2,2.24
315,Muros,40,ES,1581512758,82,42.78,-9.06,62.01,5.82
316,Menongue,2,AO,1581512758,49,-14.66,17.69,80.13,5.84
317,Kyiv,75,UA,1581512758,81,50.43,30.52,37.99,8.95
318,Wanning,1,CN,1581512758,90,18.8,110.4,71.24,6.44
319,Hue,40,VN,1581512650,88,16.47,107.6,77.0,2.24
320,San Patricio,51,MX,1581512759,74,19.22,-104.7,75.42,1.03
321,Katobu,88,ID,1581512759,90,-4.94,122.53,77.07,1.7
322,Provideniya,85,RU,1581512759,95,64.38,-173.3,-4.02,8.34
323,Bubaque,0,GW,1581512759,65,11.28,-15.83,78.24,9.44
324,Sao Goncalo do Amarante,75,BR,1581512759,62,-3.61,-38.97,87.8,13.87
325,Kumul,48,CN,1581512760,67,42.8,93.45,20.32,2.62
326,Tromso,75,NO,1581512603,80,69.65,18.96,33.8,21.92
327,Kenai,90,US,1581512760,85,60.55,-151.26,21.0,17.22
328,Gotsucho,100,JP,1581512760,85,35.0,132.22,57.43,5.66
329,Nome,1,US,1581512761,69,64.5,-165.41,-13.0,3.36
330,Gordeyevka,98,RU,1581512761,81,52.96,31.97,36.66,11.14
331,Bereket,24,TM,1581512761,46,39.24,55.52,39.07,3.76
332,Souillac,40,MU,1581512761,79,-20.52,57.52,84.2,17.22
333,Mossamedes,47,AO,1581512762,81,-15.2,12.15,76.44,8.88
334,Luwuk,55,ID,1581512762,71,-0.95,122.79,83.19,14.09
335,Waddan,0,LY,1581512762,11,29.16,16.14,71.96,7.54
336,Halifax,90,CA,1581512755,88,44.65,-63.57,33.01,17.22
337,Valdivia,86,CL,1581512762,87,-39.81,-73.25,60.8,3.36
338,Gamagori,75,JP,1581512479,87,34.83,137.23,54.0,9.17
339,Paamiut,92,GL,1581512763,64,61.99,-49.67,2.79,12.06
340,Rongcheng,55,CN,1581512763,93,30.63,117.85,52.39,1.61
341,Airai,100,TL,1581512763,94,-8.93,125.41,68.16,2.35
342,Dandong,27,CN,1581512568,87,40.13,124.39,38.55,2.53
343,Xiaoweizhai,94,CN,1581512764,96,26.19,107.51,54.5,3.13
344,Nanortalik,30,GL,1581512764,53,60.14,-45.24,16.03,12.37
345,Gushikawa,75,JP,1581512764,83,26.35,127.87,69.8,10.29
346,Itarema,33,BR,1581512764,78,-2.92,-39.92,82.18,6.33
347,Male,75,MV,1581512707,74,4.17,73.51,86.0,16.11
348,Asau,40,RO,1581512765,42,46.43,26.4,46.4,21.92
349,Sterling,1,US,1581512765,80,39.01,-77.43,42.8,4.7
350,Vilyuysk,99,RU,1581512765,97,63.76,121.62,-15.03,4.88
351,Stokmarknes,75,NO,1581512765,92,68.56,14.91,37.0,6.93
352,Seoul,1,KR,1581512766,100,37.57,126.98,46.4,1.12
353,Luderitz,50,NA,1581512766,77,-26.65,15.16,69.8,10.29
354,Severo-Kuril'sk,79,RU,1581512766,92,50.68,156.12,20.62,13.53
355,Charleston,100,US,1581512543,100,32.78,-79.93,61.0,1.81
356,Rio Grande,75,BR,1581512636,69,-32.03,-52.1,75.2,16.11
357,Beira,75,MZ,1581512767,74,-19.84,34.84,84.2,17.22
358,Tautira,20,PF,1581512767,78,-17.73,-149.15,78.8,1.12
359,Qarqin,96,AF,1581512767,70,37.42,66.04,47.17,16.93
360,Arbuzynka,97,UA,1581512767,74,47.91,31.32,37.11,18.48
361,Tuatapere,100,NZ,1581512767,92,-46.13,167.68,57.0,1.01
362,Bela,8,IN,1581512768,52,25.93,81.98,66.38,6.02
363,Mulchen,40,CL,1581512768,100,-37.72,-72.23,60.8,11.41
364,Ixtapa,75,MX,1581512507,82,20.7,-105.2,69.01,5.82
365,Sabha,7,LY,1581512768,13,27.04,14.43,72.05,7.05
366,Chitral,100,PK,1581512769,97,35.85,71.79,25.05,5.23
367,Port-Cartier,40,CA,1581512769,84,50.03,-66.87,10.99,3.36
368,Grenaa,52,DK,1581512769,86,56.42,10.88,41.0,13.87
369,Sola,100,VU,1581512769,82,-13.88,167.55,84.33,14.25
370,Batagay-Alyta,93,RU,1581512770,99,67.8,130.41,-21.8,2.21
371,Bayanday,43,RU,1581512770,96,53.07,105.51,-1.61,3.91
372,Nuqui,90,CO,1581512770,76,5.71,-77.27,57.2,5.53
373,Zwedru,56,LR,1581512770,12,6.07,-8.13,94.86,5.91
374,Quang Ngai,0,VN,1581512771,85,15.12,108.8,76.12,18.86
375,Faanui,52,PF,1581512771,80,-16.48,-151.75,81.61,15.41
376,Ankazoabo,0,MG,1581512771,15,-22.28,44.52,96.66,5.64
377,Bethanien,61,NA,1581512771,19,-26.5,17.16,93.6,9.08
378,Vuktyl,100,RU,1581512771,90,63.86,57.31,22.51,12.66
379,Wuwei,0,CN,1581512772,23,37.93,102.64,35.53,3.33
380,Puerto Carreno,82,CO,1581512772,69,6.19,-67.49,78.8,11.41
381,Kaberamaido,52,UG,1581512772,34,1.74,33.16,84.2,1.66
382,Tabas,42,IR,1581512772,15,33.6,56.92,46.4,6.93
383,Superior,90,US,1581512773,68,46.72,-92.1,28.99,4.7
384,Whitehorse,90,CA,1581512773,85,60.72,-135.05,12.2,20.8
385,Rudbar,99,AF,1581512773,51,30.15,62.6,69.48,10.0
386,Tortoli,20,IT,1581512773,47,39.93,9.66,66.2,5.82
387,Puerto Quijarro,100,BO,1581512773,94,-17.78,-57.77,77.05,2.17
388,Howick,73,ZA,1581512774,77,-29.48,30.23,73.0,1.01
389,Lahaina,1,US,1581512774,93,20.88,-156.68,66.2,3.36
390,Kupino,0,RU,1581512774,86,54.37,77.3,2.41,8.79
391,Adrar,13,MR,1581512527,28,20.5,-10.07,81.0,16.87
392,Kaseda,75,JP,1581512774,100,31.42,130.32,59.0,8.05
393,Muscatine,1,US,1581512775,92,41.47,-91.13,28.4,10.67
394,Noumea,100,NC,1581512775,74,-22.28,166.46,82.4,5.82
395,Grants Pass,20,US,1581512659,92,42.44,-123.33,34.0,2.62
396,Vila Velha,75,BR,1581512776,78,-20.33,-40.29,79.0,6.93
397,Nuuk,20,GL,1581512776,65,64.18,-51.72,8.6,14.99
398,Vicksburg,90,US,1581512776,100,32.35,-90.88,54.0,3.36
399,Lhokseumawe,60,ID,1581512776,95,5.18,97.15,74.44,1.23
400,Salym,100,RU,1581512777,93,60.06,71.48,15.06,7.99
401,Porbandar,20,IN,1581512777,64,21.64,69.61,79.07,13.13
402,Sulangan,35,PH,1581512777,79,11.14,123.72,80.37,10.51
403,Rantoul,1,US,1581512777,100,40.31,-88.16,30.0,4.7
404,Padang,40,ID,1581512530,94,-0.95,100.35,77.0,2.24
405,Mayo,1,US,1581512778,72,38.89,-76.51,44.01,6.93
406,Kabompo,59,ZM,1581512778,56,-13.59,24.2,83.26,5.99
407,Baiyin,0,CN,1581512778,21,36.56,104.21,36.0,4.47
408,Fuling,25,CN,1581512707,77,29.7,107.39,54.14,2.1
409,Neuquen,0,AR,1581512778,73,-38.95,-68.06,69.8,1.12
410,Sisimiut,59,GL,1581512779,72,66.94,-53.67,-4.31,6.33
411,Margate,20,GB,1581512779,52,51.38,1.39,48.99,19.46
412,Qaqortoq,20,GL,1581512779,31,60.72,-46.03,3.2,3.36
413,Altamira,90,BR,1581512642,94,-3.2,-52.21,77.0,6.93
414,Phulbani,1,IN,1581512780,44,20.47,84.23,67.91,2.66
415,Ringas,35,IN,1581512780,23,27.35,75.57,77.0,3.36
416,Chicama,93,PE,1581512780,83,-7.84,-79.15,69.44,3.31
417,Tashtyp,93,RU,1581512780,79,52.79,89.9,6.26,2.48
418,Katsuura,75,JP,1581512780,50,35.13,140.3,57.99,9.17
419,Safi,0,MA,1581512781,35,32.3,-9.24,71.13,2.01
420,Iowa City,1,US,1581512781,100,41.66,-91.53,27.0,10.29
421,Sembe,60,CG,1581512781,48,1.65,14.58,87.26,4.29
422,Merke,100,KZ,1581512781,81,42.87,73.18,33.03,3.56
423,Santa Maria,20,BR,1581512781,78,-29.68,-53.81,71.6,11.41
424,Casillas,40,GT,1581512782,93,14.42,-90.24,60.8,9.17
425,Benguela,75,AO,1581512782,70,-12.58,13.41,87.8,13.87
426,Karlsfeld,75,DE,1581512782,69,48.22,11.47,43.0,19.46
427,Bereda,20,ES,1581512782,87,43.27,-7.54,59.0,2.24
428,Walvis Bay,47,NA,1581512783,72,-22.96,14.51,73.0,4.0
429,Bafoulabe,0,ML,1581512783,10,13.81,-10.83,95.79,13.85
430,Chudovo,96,RU,1581512783,96,59.12,31.68,33.06,7.65
431,Riviere-au-Renard,75,CA,1581512783,85,49.0,-64.4,21.2,6.93
432,Bud,1,US,1581512784,100,39.45,-86.18,32.0,3.36
433,Bull Savanna,2,JM,1581512784,92,17.89,-77.59,65.77,3.31
434,Clarksdale,100,US,1581512544,100,34.2,-90.57,44.6,10.04
435,Port Hueneme,1,US,1581512784,75,34.15,-119.2,50.0,4.36
436,Roald,75,NO,1581512784,69,62.58,6.13,39.2,11.41
437,Banon,100,ES,1581512784,67,40.84,-1.19,59.0,5.82
438,Fairbanks,1,US,1581512785,74,64.84,-147.72,-11.99,4.9
439,Provincia di Mantova,20,IT,1581512785,37,45.17,10.78,64.0,10.29
440,Grindavik,75,IS,1581512785,54,63.84,-22.43,28.4,6.93
441,Luganville,100,VU,1581512785,92,-15.53,167.17,76.6,1.81
442,Mosquera,20,CO,1581512785,100,4.71,-74.23,39.2,3.36
443,Marsh Harbour,17,BS,1581512714,85,26.54,-77.06,74.73,11.92
444,Atambua,100,ID,1581512786,87,-9.11,124.89,76.23,1.36
445,Acajutla,0,SV,1581512786,67,13.59,-89.83,80.4,5.08
446,Victor Harbor,75,AU,1581512786,82,-35.57,138.62,66.2,11.41
447,Tual,45,ID,1581512787,78,-5.67,132.75,82.96,15.75
448,Saint-Augustin,100,CA,1581512787,95,51.23,-58.65,20.86,6.53
449,Nouadhibou,0,MR,1581512787,30,20.93,-17.03,80.6,9.17
450,Maceio,75,BR,1581512787,78,-9.67,-35.74,80.6,2.24
451,Roebourne,0,AU,1581512787,66,-20.78,117.13,82.92,15.97
452,Rodrigues Alves,90,BR,1581512788,95,-7.74,-72.65,73.06,0.67
453,Manavalakurichi,20,IN,1581512788,70,8.13,77.3,87.8,5.82
454,Yerbogachen,0,RU,1581512788,95,61.28,108.01,-14.8,6.29
455,Komatsushimacho,75,JP,1581512788,93,34.0,134.58,57.2,17.22
456,Tilichiki,100,RU,1581512789,97,60.47,166.1,-6.61,12.24
457,Husavik,75,IS,1581512789,85,66.04,-17.34,23.0,10.29
458,Meadow Lake,75,US,1581512789,92,34.8,-106.54,30.99,6.93
459,Samtredia,90,GE,1581512789,95,42.15,42.34,32.0,4.7
460,Mago,100,RU,1581512790,96,53.25,140.18,5.99,1.88
461,Sitka,90,US,1581512790,86,57.05,-135.33,37.4,13.87
462,Foam Lake,72,CA,1581512790,95,51.65,-103.53,-30.06,8.75
463,Fukuecho,75,JP,1581512791,93,32.69,128.84,59.0,10.29
464,Iskateley,100,RU,1581512791,91,67.68,53.15,25.88,20.83
465,Rostovka,76,RU,1581512791,91,55.38,71.89,7.5,9.48
466,Luis Correia,75,BR,1581512766,79,-2.88,-41.67,86.0,9.17
467,Todos Santos,0,MX,1581512791,59,23.45,-110.22,55.99,1.99
468,Rabat,40,MA,1581512788,63,33.99,-6.84,66.2,2.24
469,Pemba,75,MZ,1581512792,70,-12.97,40.52,87.8,8.05
470,Udachny,8,RU,1581512519,75,66.42,112.4,-16.6,4.47
471,Clyde River,90,CA,1581512587,76,70.47,-68.59,-9.4,13.87
472,Great Yarmouth,40,GB,1581512777,56,52.61,1.73,46.0,21.92
473,Mitu,49,CO,1581512793,90,1.2,-70.17,74.46,1.92
474,Sioux Lookout,40,CA,1581512793,68,50.1,-91.92,-9.4,13.87
475,Huntsville,90,US,1581512692,93,34.73,-86.59,46.99,3.36
476,Iqaluit,20,CA,1581512793,60,63.75,-68.51,-29.0,6.93
477,West Bend,1,US,1581512718,72,43.43,-88.18,23.0,8.05
478,Cartagena,7,CO,1581512550,94,10.4,-75.51,75.2,1.12
479,La Ronge,5,CA,1581512794,60,55.1,-105.28,-27.4,9.17
480,Caravelas,97,BR,1581512794,80,-17.71,-39.25,80.42,12.53
481,Den Helder,75,NL,1581512794,70,52.96,4.76,45.0,27.51
482,Gbarnga,43,LR,1581512795,12,7.0,-9.47,94.24,6.15
483,Camopi,95,GF,1581512795,88,3.17,-52.32,74.3,4.85
484,Diphu,10,IN,1581512795,75,25.83,93.43,64.2,2.37
485,Kidal,92,ML,1581512795,6,18.44,1.41,83.75,20.22
486,Shihezi,30,CN,1581512796,89,44.3,86.03,11.03,8.93
487,Gao,74,ML,1581512796,6,16.64,1.64,86.79,16.04
488,Kupang,75,ID,1581512680,100,-10.17,123.58,77.0,2.24
489,Luau,19,AO,1581512796,51,-10.71,22.22,84.72,5.19
490,Stroud,20,GB,1581512796,64,51.75,-2.2,48.2,9.17
491,Srednekolymsk,0,RU,1581512797,45,67.45,153.68,-25.22,2.17
492,Dolo,0,IT,1581512797,66,45.43,12.07,57.99,3.36
493,Tabuan,75,PH,1581512797,74,9.52,122.85,80.6,6.93
494,Bilibino,8,RU,1581512797,83,68.05,166.44,-15.36,2.59
495,Tazovsky,91,RU,1581512797,95,67.47,78.7,8.38,10.83
496,Agutaya,15,PH,1581512798,78,11.15,120.94,79.48,24.52
497,Chapada dos Guimaraes,75,BR,1581512798,83,-15.46,-55.75,77.0,11.41
498,Swan River,48,CA,1581512798,89,52.11,-101.27,-30.17,3.85
499,Laguna,1,US,1581512799,86,38.42,-121.42,48.99,2.17
500,Owando,57,CG,1581512799,35,-0.48,15.9,96.96,3.2
501,Arica,100,CL,1581512724,64,-18.48,-70.3,71.6,4.7
502,Pimentel,81,PE,1581512799,29,-6.84,-79.93,66.2,9.17
503,Lago da Pedra,84,BR,1581512799,89,-4.33,-45.17,80.8,2.44
504,Vaitape,52,PF,1581512715,80,-16.52,-151.75,81.61,15.41
505,Qasigiannguit,75,GL,1581512800,45,68.82,-51.19,1.4,8.05
506,Dauphin,1,CA,1581512800,68,51.15,-100.05,-20.2,11.41
507,Alice Springs,0,AU,1581512625,18,-23.7,133.88,87.8,5.82
508,Hailar,100,CN,1581512800,93,49.2,119.7,17.04,10.78
509,Craigieburn,75,AU,1581512801,82,-37.6,144.95,70.0,11.41
510,Kasempa,44,ZM,1581512801,75,-13.46,25.83,77.25,6.46
511,Baiquan,50,CN,1581512801,89,47.58,126.08,15.46,3.67
512,Korhogo,100,CI,1581512801,8,9.45,-5.63,93.38,11.39
513,Keffi,47,NG,1581512801,29,8.85,7.87,89.6,6.93
514,Luena,77,AO,1581512802,54,-11.78,19.92,81.21,3.83
515,Kristiansund,75,NO,1581512802,74,63.11,7.73,35.6,23.04
516,Bend,1,US,1581512666,92,44.06,-121.32,30.99,2.21
517,Bongandanga,34,CD,1581512802,20,1.5,21.05,100.76,3.15
518,Teguldet,100,RU,1581512803,93,57.31,88.17,7.27,7.61
519,Sur,99,OM,1581512803,68,22.57,59.53,73.02,15.39
520,Villa de Cura,2,VE,1581512803,80,10.04,-67.49,68.11,1.59
521,Ostrovnoy,100,RU,1581512803,85,68.05,39.51,30.99,26.55
522,Kampong Thom,61,KH,1581512584,50,12.71,104.89,85.78,4.59
523,Minuri,34,PH,1581512803,94,16.54,121.86,60.04,3.47
524,Otradnoye,90,RU,1581512529,82,59.78,30.82,36.0,6.71
525,Usinsk,100,RU,1581512804,90,65.99,57.53,22.35,22.53
526,Bati,100,ET,1581512804,89,11.18,40.02,59.7,2.8
527,Merauke,100,ID,1581512804,87,-8.47,140.33,79.12,7.63
528,Demyanovo,98,RU,1581512804,86,60.35,47.08,32.67,12.37
529,Batagay,100,RU,1581512805,99,67.63,134.63,-19.55,1.36
530,Novoagansk,100,RU,1581512805,94,61.94,76.66,11.12,10.54
531,Sokolo,46,ML,1581512805,7,14.73,-6.12,92.95,18.54
532,Puerto del Rosario,6,ES,1581512805,73,28.5,-13.86,69.8,4.7
533,Thunder Bay,90,CA,1581512805,85,48.4,-89.32,25.0,4.59
534,Tamiahua,73,MX,1581512806,88,21.27,-97.45,73.65,4.7
535,Puerto Leguizamo,99,CO,1581512806,81,-0.19,-74.78,74.64,0.98
536,Ialibu,100,PG,1581512678,97,-6.28,143.99,61.86,8.66
537,Vallenar,58,CL,1581512806,83,-28.57,-70.76,61.48,2.42
538,Abrau-Dyurso,75,RU,1581512806,61,44.69,37.59,46.4,20.13
539,Chara,81,RU,1581512807,62,56.91,118.26,-14.78,2.26
540,Nha Trang,20,VN,1581512807,88,12.25,109.18,75.2,6.93
541,Gawler,75,AU,1581512807,82,-34.6,138.73,69.01,11.41
542,Kloulklubed,90,PW,1581512807,88,7.04,134.26,78.8,12.75
543,Bol,91,TD,1581512808,25,13.46,14.71,77.72,18.41
544,El Alto,86,PE,1581512808,76,-4.27,-81.21,72.75,6.4
545,Waiouru,55,NZ,1581512808,66,-39.48,175.67,55.72,4.94
546,Ashgabat,40,TM,1581512808,50,37.95,58.38,42.8,9.17
547,Amherst Center,20,US,1581512808,82,42.38,-72.52,35.01,10.29
548,Boyolangu,100,ID,1581512809,92,-8.12,111.89,75.76,2.68
549,Boralday,75,KZ,1581512809,92,43.36,76.86,23.0,6.71
550,Tulun,100,RU,1581512809,95,54.56,100.58,8.76,4.34
551,Mollendo,100,PE,1581512809,88,-17.02,-72.01,68.02,6.51
552,Zyryanka,96,RU,1581512810,63,65.75,150.85,-20.27,3.78
553,Utete,94,TZ,1581512810,74,-7.99,38.76,84.96,3.04
554,La Palma,1,US,1581512810,65,33.85,-118.05,52.0,4.7
